$GPGGA,224213.213,6000.433,N,03023.424,E,1,12,1.0,0.0,M,0.0,M,,*68
$GPGSA,A,3,01,02,03,04,05,06,07,08,09,10,11,12,1.0,1.0,1.0*30
$GPRMC,224213.213,A,6000.433,N,03023.424,E,734.3,278.3,081018,000.0,W*71
$GPGGA,224215.213,6000.546,N,03022.640,E,1,12,1.0,0.0,M,0.0,M,,*6C
$GPGSA,A,3,01,02,03,04,05,06,07,08,09,10,11,12,1.0,1.0,1.0*30
$GPRMC,224215.213,A,6000.546,N,03022.640,E,348.1,267.9,081018,000.0,W*7C
$GPGGA,224217.213,6000.533,N,03022.255,E,1,12,1.0,0.0,M,0.0,M,,*6C
$GPGSA,A,3,01,02,03,04,05,06,07,08,09,10,11,12,1.0,1.0,1.0*30
$GPRMC,224217.213,A,6000.533,N,03022.255,E,2976.7,227.7,081018,000.0,W*45
$GPGGA,224219.213,5959.087,N,03020.654,E,1,12,1.0,0.0,M,0.0,M,,*69
$GPGSA,A,3,01,02,03,04,05,06,07,08,09,10,11,12,1.0,1.0,1.0*30
$GPRMC,224219.213,A,5959.087,N,03020.654,E,2283.4,243.7,081018,000.0,W*40
$GPGGA,224221.213,5958.197,N,03018.849,E,1,12,1.0,0.0,M,0.0,M,,*6A
$GPGSA,A,3,01,02,03,04,05,06,07,08,09,10,11,12,1.0,1.0,1.0*30
$GPRMC,224221.213,A,5958.197,N,03018.849,E,1703.6,245.5,081018,000.0,W*4B
$GPGGA,224223.213,5957.563,N,03017.447,E,1,12,1.0,0.0,M,0.0,M,,*65
$GPGSA,A,3,01,02,03,04,05,06,07,08,09,10,11,12,1.0,1.0,1.0*30
$GPRMC,224223.213,A,5957.563,N,03017.447,E,4965.4,285.5,081018,000.0,W*41
$GPGGA,224225.213,5958.896,N,03012.626,E,1,12,1.0,0.0,M,0.0,M,,*6B
$GPGSA,A,3,01,02,03,04,05,06,07,08,09,10,11,12,1.0,1.0,1.0*30
$GPRMC,224225.213,A,5958.896,N,03012.626,E,9037.5,109.2,081018,000.0,W*4D
$GPGGA,224227.213,5956.047,N,03020.875,E,1,12,1.0,0.0,M,0.0,M,,*6A
$GPGSA,A,3,01,02,03,04,05,06,07,08,09,10,11,12,1.0,1.0,1.0*30
$GPRMC,224227.213,A,5956.047,N,03020.875,E,743.9,106.3,081018,000.0,W*73
$GPGGA,224229.213,5955.840,N,03021.588,E,1,12,1.0,0.0,M,0.0,M,,*66
$GPGSA,A,3,01,02,03,04,05,06,07,08,09,10,11,12,1.0,1.0,1.0*30
$GPRMC,224229.213,A,5955.840,N,03021.588,E,5913.4,344.0,081018,000.0,W*4B
$GPGGA,224231.213,5959.089,N,03020.654,E,1,12,1.0,0.0,M,0.0,M,,*6D
$GPGSA,A,3,01,02,03,04,05,06,07,08,09,10,11,12,1.0,1.0,1.0*30
$GPRMC,224231.213,A,5959.089,N,03020.654,E,3514.6,064.8,081018,000.0,W*46
$GPGGA,224233.213,6000.424,N,03023.501,E,1,12,1.0,0.0,M,0.0,M,,*6A
$GPGSA,A,3,01,02,03,04,05,06,07,08,09,10,11,12,1.0,1.0,1.0*30
$GPRMC,224233.213,A,6000.424,N,03023.501,E,155.5,206.8,081018,000.0,W*76
$GPGGA,224235.213,6000.340,N,03023.458,E,1,12,1.0,0.0,M,0.0,M,,*64
$GPGSA,A,3,01,02,03,04,05,06,07,08,09,10,11,12,1.0,1.0,1.0*30
$GPRMC,224235.213,A,6000.340,N,03023.458,E,169.6,340.2,081018,000.0,W*7D
$GPGGA,224237.213,6000.433,N,03023.425,E,1,12,1.0,0.0,M,0.0,M,,*6F
$GPGSA,A,3,01,02,03,04,05,06,07,08,09,10,11,12,1.0,1.0,1.0*30
$GPRMC,224237.213,A,6000.433,N,03023.425,E,1551.8,254.1,081018,000.0,W*41
$GPGGA,224239.213,6000.009,N,03021.925,E,1,12,1.0,0.0,M,0.0,M,,*63
$GPGSA,A,3,01,02,03,04,05,06,07,08,09,10,11,12,1.0,1.0,1.0*30
$GPRMC,224239.213,A,6000.009,N,03021.925,E,427.9,090.0,081018,000.0,W*76
$GPGGA,224241.213,6000.008,N,03022.400,E,1,12,1.0,0.0,M,0.0,M,,*64
$GPGSA,A,3,01,02,03,04,05,06,07,08,09,10,11,12,1.0,1.0,1.0*30
$GPRMC,224241.213,A,6000.008,N,03022.400,E,4140.0,272.2,081018,000.0,W*44
$GPGGA,224243.213,6000.186,N,03017.817,E,1,12,1.0,0.0,M,0.0,M,,*6D
$GPGSA,A,3,01,02,03,04,05,06,07,08,09,10,11,12,1.0,1.0,1.0*30
$GPRMC,224243.213,A,6000.186,N,03017.817,E,2692.7,251.7,081018,000.0,W*40
$GPGGA,224245.213,5959.365,N,03015.319,E,1,12,1.0,0.0,M,0.0,M,,*65
$GPGSA,A,3,01,02,03,04,05,06,07,08,09,10,11,12,1.0,1.0,1.0*30
$GPRMC,224245.213,A,5959.365,N,03015.319,E,3422.7,265.1,081018,000.0,W*41
$GPGGA,224247.213,5959.043,N,03011.575,E,1,12,1.0,0.0,M,0.0,M,,*68
$GPGSA,A,3,01,02,03,04,05,06,07,08,09,10,11,12,1.0,1.0,1.0*30
$GPRMC,224247.213,A,5959.043,N,03011.575,E,3845.4,100.4,081018,000.0,W*47
$GPGGA,224249.213,5958.309,N,03015.582,E,1,12,1.0,0.0,M,0.0,M,,*66
$GPGSA,A,3,01,02,03,04,05,06,07,08,09,10,11,12,1.0,1.0,1.0*30
$GPRMC,224249.213,A,5958.309,N,03015.582,E,3624.6,105.0,081018,000.0,W*43
$GPGGA,224251.213,5957.362,N,03019.130,E,1,12,1.0,0.0,M,0.0,M,,*6C
$GPGSA,A,3,01,02,03,04,05,06,07,08,09,10,11,12,1.0,1.0,1.0*30
$GPRMC,224251.213,A,5957.362,N,03019.130,E,980.1,272.9,081018,000.0,W*76
$GPGGA,224253.213,5957.417,N,03018.048,E,1,12,1.0,0.0,M,0.0,M,,*64
$GPGSA,A,3,01,02,03,04,05,06,07,08,09,10,11,12,1.0,1.0,1.0*30
$GPRMC,224253.213,A,5957.417,N,03018.048,E,453.2,116.7,081018,000.0,W*71
$GPGGA,224255.213,5957.239,N,03018.404,E,1,12,1.0,0.0,M,0.0,M,,*64
$GPGSA,A,3,01,02,03,04,05,06,07,08,09,10,11,12,1.0,1.0,1.0*30
$GPRMC,224255.213,A,5957.239,N,03018.404,E,473.8,180.0,081018,000.0,W*71
$GPGGA,224257.213,5956.976,N,03018.404,E,1,12,1.0,0.0,M,0.0,M,,*67
$GPGSA,A,3,01,02,03,04,05,06,07,08,09,10,11,12,1.0,1.0,1.0*30
$GPRMC,224257.213,A,5956.976,N,03018.404,E,2757.4,081.1,081018,000.0,W*48
$GPGGA,224259.213,5957.430,N,03021.324,E,1,12,1.0,0.0,M,0.0,M,,*68
$GPGSA,A,3,01,02,03,04,05,06,07,08,09,10,11,12,1.0,1.0,1.0*30
$GPRMC,224259.213,A,5957.430,N,03021.324,E,5654.4,016.6,081018,000.0,W*4B
$GPGGA,224301.213,6000.534,N,03022.256,E,1,12,1.0,0.0,M,0.0,M,,*6E
$GPGSA,A,3,01,02,03,04,05,06,07,08,09,10,11,12,1.0,1.0,1.0*30
$GPRMC,224301.213,A,6000.534,N,03022.256,E,1066.1,095.0,081018,000.0,W*46
$GPGGA,224303.213,6000.432,N,03023.422,E,1,12,1.0,0.0,M,0.0,M,,*6F
$GPGSA,A,3,01,02,03,04,05,06,07,08,09,10,11,12,1.0,1.0,1.0*30
$GPRMC,224303.213,A,6000.432,N,03023.422,E,1066.1,095.0,081018,000.0,W*47
